{
    "Cameroun": [
      {"name": "Yaoundé", "latitude": 3.848, "longitude": 11.5021},
      {"name": "Douala", "latitude": 4.0511, "longitude": 9.7679},
      {"name": "Bafoussam", "latitude": 5.4778, "longitude": 10.417},
      {"name": "Bamenda", "latitude": 5.9631, "longitude": 10.1591},
      {"name": "Garoua", "latitude": 9.3014, "longitude": 13.3936},
      {"name": "Maroua", "latitude": 10.5956, "longitude": 14.3247},
      {"name": "Ngaoundéré", "latitude": 7.3274, "longitude": 13.5847},
      {"name": "Ebolowa", "latitude": 2.9031, "longitude": 11.1506},
      {"name": "Kribi", "latitude": 2.9388, "longitude": 9.9109},
      {"name": "Limbe", "latitude": 4.0228, "longitude": 9.2066},
      {"name": "Bertoua", "latitude": 4.5773, "longitude": 13.6846},
      {"name": "Kumba", "latitude": 4.6363, "longitude": 9.4469},
      {"name": "Nkongsamba", "latitude": 4.9547, "longitude": 9.9404},
      {"name": "Foumban", "latitude": 5.7297, "longitude": 10.9061},
      {"name": "Dschang", "latitude": 5.4432, "longitude": 10.0534},
      {"name": "Tiko", "latitude": 4.0779, "longitude": 9.3601},
      {"name": "Mbalmayo", "latitude": 3.5167, "longitude": 11.5},
      {"name": "Bafia", "latitude": 4.75, "longitude": 11.2333},
      {"name": "Meiganga", "latitude": 6.5167, "longitude": 14.3},
      {"name": "Wum", "latitude": 6.3833, "longitude": 10.0667}
    ],
    "China": [
      {"name": "Beijing", "latitude": 39.9042, "longitude": 116.4074},
      {"name": "Shanghai", "latitude": 31.2304, "longitude": 121.4737},
      {"name": "Guangzhou", "latitude": 23.1291, "longitude": 113.2644},
      {"name": "Shenzhen", "latitude": 22.5431, "longitude": 114.0579},
      {"name": "Chengdu", "latitude": 30.5728, "longitude": 104.0668},
      {"name": "Wuhan", "latitude": 30.5928, "longitude": 114.3055},
      {"name": "Xi'an", "latitude": 34.3416, "longitude": 108.9398},
      {"name": "Hangzhou", "latitude": 30.2741, "longitude": 120.1551},
      {"name": "Nanjing", "latitude": 32.0603, "longitude": 118.7969},
      {"name": "Tianjin", "latitude": 39.3434, "longitude": 117.3616},
      {"name": "Chongqing", "latitude": 29.563, "longitude": 106.5516},
      {"name": "Suzhou", "latitude": 31.2989, "longitude": 120.5853},
      {"name": "Harbin", "latitude": 45.8038, "longitude": 126.5349},
      {"name": "Qingdao", "latitude": 36.0671, "longitude": 120.3826},
      {"name": "Zhengzhou", "latitude": 34.7466, "longitude": 113.6254},
      {"name": "Jinan", "latitude": 36.6512, "longitude": 117.1201},
      {"name": "Shijiazhuang", "latitude": 38.0428, "longitude": 114.5149},
      {"name": "Changsha", "latitude": 28.2282, "longitude": 112.9388},
      {"name": "Dalian", "latitude": 38.914, "longitude": 121.6147},
      {"name": "Fuzhou", "latitude": 26.0745, "longitude": 119.2965}
    ],
    "USA": [
    {"name": "Alabama", "latitude": 32.3182, "longitude": -86.9023},
    {"name": "Alaska", "latitude": 63.5888, "longitude": -154.4931},
    {"name": "Arizona", "latitude": 34.0489, "longitude": -111.0937},
    {"name": "Arkansas", "latitude": 35.2010, "longitude": -91.8318},
    {"name": "California", "latitude": 36.7783, "longitude": -119.4179},
    {"name": "Colorado", "latitude": 39.5501, "longitude": -105.7821},
    {"name": "Connecticut", "latitude": 41.6032, "longitude": -73.0877},
    {"name": "Delaware", "latitude": 38.9108, "longitude": -75.5277},
    {"name": "Florida", "latitude": 27.6648, "longitude": -81.5158},
    {"name": "Georgia", "latitude": 32.1574, "longitude": -82.9071},
    {"name": "Hawaii", "latitude": 19.8987, "longitude": -155.6659},
    {"name": "Idaho", "latitude": 44.0682, "longitude": -114.7420},
    {"name": "Illinois", "latitude": 40.6331, "longitude": -89.3985},
    {"name": "Indiana", "latitude": 40.2672, "longitude": -86.1349},
    {"name": "Iowa", "latitude": 41.8780, "longitude": -93.0977},
    {"name": "Kansas", "latitude": 39.0119, "longitude": -98.4842},
    {"name": "Kentucky", "latitude": 37.8393, "longitude": -84.2700},
    {"name": "Louisiana", "latitude": 30.9843, "longitude": -91.9623},
    {"name": "Maine", "latitude": 45.2538, "longitude": -69.4455},
    {"name": "Maryland", "latitude": 39.0458, "longitude": -76.6413},
    {"name": "Massachusetts", "latitude": 42.4072, "longitude": -71.3824},
    {"name": "Michigan", "latitude": 44.3148, "longitude": -85.6024},
    {"name": "Minnesota", "latitude": 46.7296, "longitude": -94.6859},
    {"name": "Mississippi", "latitude": 32.3547, "longitude": -89.3985},
    {"name": "Missouri", "latitude": 37.9643, "longitude": -91.8318},
    {"name": "Montana", "latitude": 46.8797, "longitude": -110.3626},
    {"name": "Nebraska", "latitude": 41.4925, "longitude": -99.9018},
    {"name": "Nevada", "latitude": 38.8026, "longitude": -116.4194},
    {"name": "New Hampshire", "latitude": 43.1939, "longitude": -71.5724},
    {"name": "New Jersey", "latitude": 40.0583, "longitude": -74.4057},
    {"name": "New Mexico", "latitude": 34.5199, "longitude": -105.8701},
    {"name": "New York", "latitude": 43.2994, "longitude": -74.2179},
    {"name": "North Carolina", "latitude": 35.7596, "longitude": -79.0193},
    {"name": "North Dakota", "latitude": 47.5515, "longitude": -101.0020},
    {"name": "Ohio", "latitude": 40.4173, "longitude": -82.9071},
    {"name": "Oklahoma", "latitude": 35.4676, "longitude": -97.5164},
    {"name": "Oregon", "latitude": 43.8041, "longitude": -120.5542},
    {"name": "Pennsylvania", "latitude": 41.2033, "longitude": -77.1945},
    {"name": "Rhode Island", "latitude": 41.5801, "longitude": -71.4774},
    {"name": "South Carolina", "latitude": 33.8361, "longitude": -81.1637},
    {"name": "South Dakota", "latitude": 43.9695, "longitude": -99.9018},
    {"name": "Tennessee", "latitude": 35.5175, "longitude": -86.5804},
    {"name": "Texas", "latitude": 31.9686, "longitude": -99.9018},
    {"name": "Utah", "latitude": 39.3200, "longitude": -111.0937},
    {"name": "Vermont", "latitude": 44.5588, "longitude": -72.5778},
    {"name": "Virginia", "latitude": 37.4316, "longitude": -78.6569},
    {"name": "Washington", "latitude": 47.7511, "longitude": -120.7401},
    {"name": "West Virginia", "latitude": 38.5976, "longitude": -80.4549},
    {"name": "Wisconsin", "latitude": 43.7844, "longitude": -88.7879},
    {"name": "Wyoming", "latitude": 43.0759, "longitude": -107.2903}
  ],
    "France": [
      {"name": "Paris", "latitude": 48.8566, "longitude": 2.3522},
      {"name": "Marseille", "latitude": 43.2965, "longitude": 5.3698},
      {"name": "Lyon", "latitude": 45.764, "longitude": 4.8357},
      {"name": "Toulouse", "latitude": 43.6047, "longitude": 1.4442},
      {"name": "Nice", "latitude": 43.7102, "longitude": 7.262},
      {"name": "Nantes", "latitude": 47.2184, "longitude": -1.5536},
      {"name": "Strasbourg", "latitude": 48.5734, "longitude": 7.7521},
      {"name": "Montpellier", "latitude": 43.6119, "longitude": 3.8777},
      {"name": "Bordeaux", "latitude": 44.8378, "longitude": -0.5792},
      {"name": "Lille", "latitude": 50.6292, "longitude": 3.0573},
      {"name": "Rennes", "latitude": 48.1173, "longitude": -1.6778},
      {"name": "Reims", "latitude": 49.2583, "longitude": 4.0317},
      {"name": "Le Havre", "latitude": 49.4944, "longitude": 0.1079},
      {"name": "Saint-Étienne", "latitude": 45.4397, "longitude": 4.3872},
      {"name": "Toulon", "latitude": 43.1242, "longitude": 5.928},
      {"name": "Grenoble", "latitude": 45.1885, "longitude": 5.7245},
      {"name": "Dijon", "latitude": 47.322, "longitude": 5.0415},
      {"name": "Angers", "latitude": 47.4784, "longitude": -0.5632},
      {"name": "Villeurbanne", "latitude": 45.7719, "longitude": 4.8902},
      {"name": "Clermont-Ferrand", "latitude": 45.7772, "longitude": 3.087}
    ]
    
  }
  
