{
    "Cameroun": [
      {"name": "Yaoundé", "latitude": 3.848, "longitude": 11.5021},
      {"name": "Douala", "latitude": 4.0511, "longitude": 9.7679},
      {"name": "Bafoussam", "latitude": 5.4778, "longitude": 10.417},
      {"name": "Bamenda", "latitude": 5.9631, "longitude": 10.1591},
      {"name": "Garoua", "latitude": 9.3014, "longitude": 13.3936},
      {"name": "Maroua", "latitude": 10.5956, "longitude": 14.3247},
      {"name": "Ngaoundéré", "latitude": 7.3274, "longitude": 13.5847},
      {"name": "Ebolowa", "latitude": 2.9031, "longitude": 11.1506},
      {"name": "Kribi", "latitude": 2.9388, "longitude": 9.9109},
      {"name": "Limbe", "latitude": 4.0228, "longitude": 9.2066},
      {"name": "Bertoua", "latitude": 4.5773, "longitude": 13.6846},
      {"name": "Kumba", "latitude": 4.6363, "longitude": 9.4469},
      {"name": "Nkongsamba", "latitude": 4.9547, "longitude": 9.9404},
      {"name": "Foumban", "latitude": 5.7297, "longitude": 10.9061},
      {"name": "Dschang", "latitude": 5.4432, "longitude": 10.0534},
      {"name": "Tiko", "latitude": 4.0779, "longitude": 9.3601},
      {"name": "Mbalmayo", "latitude": 3.5167, "longitude": 11.5},
      {"name": "Bafia", "latitude": 4.75, "longitude": 11.2333},
      {"name": "Meiganga", "latitude": 6.5167, "longitude": 14.3},
      {"name": "Wum", "latitude": 6.3833, "longitude": 10.0667}
    ],
    "China": [
      {"name": "Beijing", "latitude": 39.9042, "longitude": 116.4074},
      {"name": "Shanghai", "latitude": 31.2304, "longitude": 121.4737},
      {"name": "Guangzhou", "latitude": 23.1291, "longitude": 113.2644},
      {"name": "Shenzhen", "latitude": 22.5431, "longitude": 114.0579},
      {"name": "Chengdu", "latitude": 30.5728, "longitude": 104.0668},
      {"name": "Wuhan", "latitude": 30.5928, "longitude": 114.3055},
      {"name": "Xi'an", "latitude": 34.3416, "longitude": 108.9398},
      {"name": "Hangzhou", "latitude": 30.2741, "longitude": 120.1551},
      {"name": "Nanjing", "latitude": 32.0603, "longitude": 118.7969},
      {"name": "Tianjin", "latitude": 39.3434, "longitude": 117.3616},
      {"name": "Chongqing", "latitude": 29.563, "longitude": 106.5516},
      {"name": "Suzhou", "latitude": 31.2989, "longitude": 120.5853},
      {"name": "Harbin", "latitude": 45.8038, "longitude": 126.5349},
      {"name": "Qingdao", "latitude": 36.0671, "longitude": 120.3826},
      {"name": "Zhengzhou", "latitude": 34.7466, "longitude": 113.6254},
      {"name": "Jinan", "latitude": 36.6512, "longitude": 117.1201},
      {"name": "Shijiazhuang", "latitude": 38.0428, "longitude": 114.5149},
      {"name": "Changsha", "latitude": 28.2282, "longitude": 112.9388},
      {"name": "Dalian", "latitude": 38.914, "longitude": 121.6147},
      {"name": "Fuzhou", "latitude": 26.0745, "longitude": 119.2965}
    ],
    "USA": [
      {"name": "New York", "latitude": 40.7128, "longitude": -74.006},
      {"name": "Los Angeles", "latitude": 34.0522, "longitude": -118.2437},
      {"name": "Chicago", "latitude": 41.8781, "longitude": -87.6298},
      {"name": "Houston", "latitude": 29.7604, "longitude": -95.3698},
      {"name": "Phoenix", "latitude": 33.4484, "longitude": -112.074},
      {"name": "Philadelphia", "latitude": 39.9526, "longitude": -75.1652},
      {"name": "San Antonio", "latitude": 29.4241, "longitude": -98.4936},
      {"name": "San Diego", "latitude": 32.7157, "longitude": -117.1611},
      {"name": "Dallas", "latitude": 32.7767, "longitude": -96.797},
      {"name": "San Jose", "latitude": 37.3382, "longitude": -121.8863},
      {"name": "Austin", "latitude": 30.2672, "longitude": -97.7431},
      {"name": "Jacksonville", "latitude": 30.3322, "longitude": -81.6557},
      {"name": "Fort Worth", "latitude": 32.7555, "longitude": -97.3308},
      {"name": "Columbus", "latitude": 39.9612, "longitude": -82.9988},
      {"name": "Charlotte", "latitude": 35.2271, "longitude": -80.8431},
      {"name": "San Francisco", "latitude": 37.7749, "longitude": -122.4194},
      {"name": "Indianapolis", "latitude": 39.7684, "longitude": -86.1581},
      {"name": "Seattle", "latitude": 47.6062, "longitude": -122.3321},
      {"name": "Denver", "latitude": 39.7392, "longitude": -104.9903},
      {"name": "Washington", "latitude": 38.9072, "longitude": -77.0369}
    ],
    "France": [
      {"name": "Paris", "latitude": 48.8566, "longitude": 2.3522},
      {"name": "Marseille", "latitude": 43.2965, "longitude": 5.3698},
      {"name": "Lyon", "latitude": 45.764, "longitude": 4.8357},
      {"name": "Toulouse", "latitude": 43.6047, "longitude": 1.4442},
      {"name": "Nice", "latitude": 43.7102, "longitude": 7.262},
      {"name": "Nantes", "latitude": 47.2184, "longitude": -1.5536},
      {"name": "Strasbourg", "latitude": 48.5734, "longitude": 7.7521},
      {"name": "Montpellier", "latitude": 43.6119, "longitude": 3.8777},
      {"name": "Bordeaux", "latitude": 44.8378, "longitude": -0.5792},
      {"name": "Lille", "latitude": 50.6292, "longitude": 3.0573},
      {"name": "Rennes", "latitude": 48.1173, "longitude": -1.6778},
      {"name": "Reims", "latitude": 49.2583, "longitude": 4.0317},
      {"name": "Le Havre", "latitude": 49.4944, "longitude": 0.1079},
      {"name": "Saint-Étienne", "latitude": 45.4397, "longitude": 4.3872},
      {"name": "Toulon", "latitude": 43.1242, "longitude": 5.928},
      {"name": "Grenoble", "latitude": 45.1885, "longitude": 5.7245},
      {"name": "Dijon", "latitude": 47.322, "longitude": 5.0415},
      {"name": "Angers", "latitude": 47.4784, "longitude": -0.5632},
      {"name": "Villeurbanne", "latitude": 45.7719, "longitude": 4.8902},
      {"name": "Clermont-Ferrand", "latitude": 45.7772, "longitude": 3.087}
    ]
    
  }
  